[
  {
    "url": "http://delhi.speedtest.railtel.in:8080/speedtest/upload.php",
    "lat": "28.6100",
    "lon": "77.2300",
    "distance": 7530,
    "name": "Delhi",
    "country": "India",
    "cc": "IN",
    "sponsor": "RailTel Corporation of India Ltd",
    "id": "34104",
    "preferred": 0,
    "isp_id": "96146",
    "https_functional": 1,
    "host": "delhi.speedtest.railtel.in.prod.hosts.ooklaserver.net:8080"
  },
  {
    "url": "http://ggn.speedtest.railtel.in:8080/speedtest/upload.php",
    "lat": "28.4615",
    "lon": "77.0178",
    "distance": 7535,
    "name": "Gurgaon",
    "country": "India",
    "cc": "IN",
    "sponsor": "RailTel Corporation of India Ltd",
    "id": "6936",
    "preferred": 0,
    "isp_id": "96146",
    "https_functional": 1,
    "host": "ggn.speedtest.railtel.in.prod.hosts.ooklaserver.net:8080"
  },
  {
    "url": "http://jp.speedtest.railtel.in:8080/speedtest/upload.php",
    "lat": "26.9260",
    "lon": "75.8235",
    "distance": 7609,
    "name": "Jaipur",
    "country": "India",
    "cc": "IN",
    "sponsor": "RailTel Corporation of India Ltd",
    "id": "47162",
    "preferred": 0,
    "isp_id": "96146",
    "https_functional": 1,
    "host": "jp.speedtest.railtel.in.prod.hosts.ooklaserver.net:8080"
  },
  {
    "url": "http://lko.speedtest.railtel.in:8080/speedtest/upload.php",
    "lat": "26.8500",
    "lon": "80.9200",
    "distance": 7718,
    "name": "Lucknow",
    "country": "India",
    "cc": "IN",
    "sponsor": "RailTel Corporation of India Ltd",
    "id": "50989",
    "preferred": 0,
    "isp_id": "96146",
    "https_functional": 1,
    "host": "lko.speedtest.railtel.in.prod.hosts.ooklaserver.net:8080"
  },
  {
    "url": "http://adi.speedtest.railtel.in:8080/speedtest/upload.php",
    "lat": "23.0225",
    "lon": "72.5714",
    "distance": 7778,
    "name": "Ahemdabad",
    "country": "India",
    "cc": "IN",
    "sponsor": "RailTel Corporation of India Ltd",
    "id": "62223",
    "preferred": 0,
    "isp_id": "96146",
    "https_functional": 1,
    "host": "adi.speedtest.railtel.in.prod.hosts.ooklaserver.net:8080"
  },
  {
    "url": "http://pnbe.speedtest.railtel.in:8080/speedtest/upload.php",
    "lat": "25.6139",
    "lon": "85.1354",
    "distance": 7872,
    "name": "Patna",
    "country": "India",
    "cc": "IN",
    "sponsor": "RailTel Corporation of India Ltd",
    "id": "47264",
    "preferred": 0,
    "isp_id": "96146",
    "https_functional": 1,
    "host": "pnbe.speedtest.railtel.in.prod.hosts.ooklaserver.net:8080"
  },
  {
    "url": "http://gwh.speedtest.railtel.in:8080/speedtest/upload.php",
    "lat": "26.1445",
    "lon": "91.7362",
    "distance": 7917,
    "name": "Guwahati",
    "country": "India",
    "cc": "IN",
    "sponsor": "RailTel Corporation of India Ltd",
    "id": "45023",
    "preferred": 0,
    "isp_id": "96146",
    "https_functional": 1,
    "host": "gwh.speedtest.railtel.in.prod.hosts.ooklaserver.net:8080"
  },
  {
    "url": "http://ngp.speedtest.railtel.in:8080/speedtest/upload.php",
    "lat": "21.1458",
    "lon": "79.0882",
    "distance": 8055,
    "name": "Nagpur",
    "country": "India",
    "cc": "IN",
    "sponsor": "RailTel Corporation of India Ltd",
    "id": "47291",
    "preferred": 0,
    "isp_id": "96146",
    "https_functional": 1,
    "host": "ngp.speedtest.railtel.in.prod.hosts.ooklaserver.net:8080"
  },
  {
    "url": "http://bsp.speedtest.railtel.in:8080/speedtest/upload.php",
    "lat": "22.0797",
    "lon": "82.1409",
    "distance": 8056,
    "name": "Bilaspur",
    "country": "India",
    "cc": "IN",
    "sponsor": "RailTel Corporation of India Ltd",
    "id": "46899",
    "preferred": 0,
    "isp_id": "96146",
    "https_functional": 1,
    "host": "bsp.speedtest.railtel.in.prod.hosts.ooklaserver.net:8080"
  },
  {
    "url": "http://kol.speedtest.railtel.in:8080/speedtest/upload.php",
    "lat": "22.5667",
    "lon": "88.3667",
    "distance": 8123,
    "name": "Kolkata",
    "country": "India",
    "cc": "IN",
    "sponsor": "RailTel Corporation of India Ltd",
    "id": "15697",
    "preferred": 0,
    "isp_id": "96146",
    "https_functional": 1,
    "host": "kol.speedtest.railtel.in.prod.hosts.ooklaserver.net:8080"
  },
  {
    "url": "http://bbs.speedtest.railtel.in:8080/speedtest/upload.php",
    "lat": "20.2700",
    "lon": "85.8400",
    "distance": 8241,
    "name": "Bhubaneswar",
    "country": "India",
    "cc": "IN",
    "sponsor": "RailTel Corporation of India Ltd",
    "id": "39596",
    "preferred": 0,
    "isp_id": "96146",
    "https_functional": 1,
    "host": "bbs.speedtest.railtel.in.prod.hosts.ooklaserver.net:8080"
  },
  {
    "url": "http://sec.speedtest.railtel.in:8080/speedtest/upload.php",
    "lat": "17.3700",
    "lon": "78.4800",
    "distance": 8287,
    "name": "Hyderabad",
    "country": "India",
    "cc": "IN",
    "sponsor": "RailTel Corporation of India Ltd",
    "id": "7128",
    "preferred": 0,
    "isp_id": "96146",
    "https_functional": 1,
    "host": "sec.speedtest.railtel.in.prod.hosts.ooklaserver.net:8080"
  },
  {
    "url": "http://sbc.speedtest.railtel.in:8080/speedtest/upload.php",
    "lat": "12.9833",
    "lon": "77.5833",
    "distance": 8546,
    "name": "Bangalore",
    "country": "India",
    "cc": "IN",
    "sponsor": "RailTel Corporation of India Ltd",
    "id": "11558",
    "preferred": 0,
    "isp_id": "96146",
    "https_functional": 1,
    "host": "sbc.speedtest.railtel.in.prod.hosts.ooklaserver.net:8080"
  },
  {
    "url": "http://chn.speedtest.railtel.in:8080/speedtest/upload.php",
    "lat": "13.0827",
    "lon": "80.2707",
    "distance": 8606,
    "name": "Chennai",
    "country": "India",
    "cc": "IN",
    "sponsor": "RailTel Corporation of India Ltd",
    "id": "9591",
    "preferred": 0,
    "isp_id": "96146",
    "https_functional": 1,
    "host": "chn.speedtest.railtel.in.prod.hosts.ooklaserver.net:8080"
  },
  {
    "url": "http://ers.speedtest.railtel.in:8080/speedtest/upload.php",
    "lat": "9.9816",
    "lon": "76.2999",
    "distance": 8702,
    "name": "Ernakulam",
    "country": "India",
    "cc": "IN",
    "sponsor": "RailTel Corporation of India Ltd",
    "id": "37123",
    "preferred": 0,
    "isp_id": "96146",
    "https_functional": 1,
    "host": "ers.speedtest.railtel.in.prod.hosts.ooklaserver.net:8080"
  }
]
