[
  {
    "url": "http://bangalore-speedtest.ishancloud.com:8080/speedtest/upload.php",
    "lat": "12.9833",
    "lon": "77.5833",
    "distance": 310,
    "name": "Bangalore",
    "country": "India",
    "cc": "IN",
    "sponsor": "Ishan Netsol Pvt Ltd",
    "id": "44418",
    "preferred": 0,
    "isp_id": "27544",
    "https_functional": 1,
    "host": "bangalore-speedtest.ishancloud.com.prod.hosts.ooklaserver.net:8080"
  },
  {
    "url": "http://chennai-speedtest.ishancloud.com:8080/speedtest/upload.php",
    "lat": "13.0827",
    "lon": "80.2707",
    "distance": 321,
    "name": "Chennai",
    "country": "India",
    "cc": "IN",
    "sponsor": "Ishan netsol",
    "id": "58611",
    "preferred": 0,
    "isp_id": "27544",
    "https_functional": 1,
    "host": "chennai-speedtest.ishancloud.com.prod.hosts.ooklaserver.net:8080"
  },
  {
    "url": "http://raipur-speedtest.ishancloud.com:8080/speedtest/upload.php",
    "lat": "21.1797",
    "lon": "81.7787",
    "distance": 340,
    "name": "Raipur",
    "country": "India",
    "cc": "IN",
    "sponsor": "Ishan Netsol Pvt Ltd",
    "id": "43916",
    "preferred": 0,
    "isp_id": "27544",
    "https_functional": 1,
    "host": "raipur-speedtest.ishancloud.com.prod.hosts.ooklaserver.net:8080"
  },
  {
    "url": "http://bombay-speedtest.ishancloud.com:8080/speedtest/upload.php",
    "lat": "18.9647",
    "lon": "72.8258",
    "distance": 386,
    "name": "Mumbai",
    "country": "India",
    "cc": "IN",
    "sponsor": "Ishan Netsol Pvt Ltd",
    "id": "50999",
    "preferred": 0,
    "isp_id": "27544",
    "https_functional": 1,
    "host": "bombay-speedtest.ishancloud.com.prod.hosts.ooklaserver.net:8080"
  },
  {
    "url": "http://bhopal-speedtest.ishancloud.com:8080/speedtest/upload.php",
    "lat": "23.2599",
    "lon": "77.4126",
    "distance": 412,
    "name": "Bhopal",
    "country": "India",
    "cc": "IN",
    "sponsor": "Ishan Netsol Pvt Ltd",
    "id": "45500",
    "preferred": 0,
    "isp_id": "27544",
    "https_functional": 1,
    "host": "bhopal-speedtest.ishancloud.com.prod.hosts.ooklaserver.net:8080"
  },
  {
    "url": "http://speedtest1.ishangroup.com:8080/speedtest/upload.php",
    "lat": "21.1700",
    "lon": "72.8300",
    "distance": 451,
    "name": "Surat",
    "country": "India",
    "cc": "IN",
    "sponsor": "Ishan Netsol Pvt Ltd",
    "id": "7614",
    "preferred": 0,
    "isp_id": "27544",
    "https_functional": 1,
    "host": "speedtest1.ishangroup.com.prod.hosts.ooklaserver.net:8080"
  },
  {
    "url": "http://vadodara-sptest.ishancloud.com:8080/speedtest/upload.php",
    "lat": "22.3000",
    "lon": "73.2000",
    "distance": 482,
    "name": "Vadodara",
    "country": "India",
    "cc": "IN",
    "sponsor": "Ishan Netsol Pvt Ltd",
    "id": "28421",
    "preferred": 0,
    "isp_id": "27544",
    "https_functional": 1,
    "host": "vadodara-sptest.ishancloud.com.prod.hosts.ooklaserver.net:8080"
  },
  {
    "url": "http://bhubaneswar-speedtest.ishancloud.com:8080/speedtest/upload.php",
    "lat": "20.2700",
    "lon": "85.8400",
    "distance": 523,
    "name": "Bhubaneswar",
    "country": "India",
    "cc": "IN",
    "sponsor": "Ishan Netsol Pvt Ltd",
    "id": "50740",
    "preferred": 0,
    "isp_id": "27544",
    "https_functional": 1,
    "host": "bhubaneswar-speedtest.ishancloud.com.prod.hosts.ooklaserver.net:8080"
  },
  {
    "url": "http://speedtest1.ishancloud.com:8080/speedtest/upload.php",
    "lat": "23.0300",
    "lon": "72.5800",
    "distance": 546,
    "name": "Ahmedabad",
    "country": "India",
    "cc": "IN",
    "sponsor": "Ishan Netsol Pvt Ltd",
    "id": "6328",
    "preferred": 0,
    "isp_id": "27544",
    "https_functional": 1,
    "host": "speedtest1.ishancloud.com.prod.hosts.ooklaserver.net:8080"
  },
  {
    "url": "http://rajkot-speedtest.ishancloud.com:8080/speedtest/upload.php",
    "lat": "22.3000",
    "lon": "70.7833",
    "distance": 604,
    "name": "Rajkot",
    "country": "India",
    "cc": "IN",
    "sponsor": "Ishan Netsol Pvt Ltd",
    "id": "48325",
    "preferred": 0,
    "isp_id": "27544",
    "https_functional": 1,
    "host": "rajkot-speedtest.ishancloud.com.prod.hosts.ooklaserver.net:8080"
  },
  {
    "url": "http://ranchi-speedtest.ishancloud.com:8080/speedtest/upload.php",
    "lat": "23.3441",
    "lon": "85.3096",
    "distance": 606,
    "name": "Ranchi",
    "country": "India",
    "cc": "IN",
    "sponsor": "Ishan Netsol Pvt Ltd",
    "id": "45825",
    "preferred": 0,
    "isp_id": "27544",
    "https_functional": 1,
    "host": "ranchi-speedtest.ishancloud.com.prod.hosts.ooklaserver.net:8080"
  },
  {
    "url": "http://jaipur-sptest.ishancloud.com:8080/speedtest/upload.php",
    "lat": "26.9260",
    "lon": "75.8235",
    "distance": 681,
    "name": "Jaipur",
    "country": "India",
    "cc": "IN",
    "sponsor": "Ishan Netsol Pvt Ltd",
    "id": "28355",
    "preferred": 0,
    "isp_id": "27544",
    "https_functional": 1,
    "host": "jaipur-sptest.ishancloud.com.prod.hosts.ooklaserver.net:8080"
  },
  {
    "url": "http://patna-speedtest.ishancloud.com:8080/speedtest/upload.php",
    "lat": "25.6139",
    "lon": "85.1354",
    "distance": 713,
    "name": "Patna",
    "country": "India",
    "cc": "IN",
    "sponsor": "Ishan Netsol Pvt Ltd",
    "id": "38394",
    "preferred": 0,
    "isp_id": "27544",
    "https_functional": 1,
    "host": "patna-speedtest.ishancloud.com.prod.hosts.ooklaserver.net:8080"
  },
  {
    "url": "http://kolkata-speedtest.ishancloud.com:8080/speedtest/upload.php",
    "lat": "22.5667",
    "lon": "88.3667",
    "distance": 737,
    "name": "Kolkata",
    "country": "India",
    "cc": "IN",
    "sponsor": "Ishan Netsol Pvt Ltd",
    "id": "34580",
    "preferred": 0,
    "isp_id": "27544",
    "https_functional": 1,
    "host": "kolkata-speedtest.ishancloud.com.prod.hosts.ooklaserver.net:8080"
  }
]
