[
  {
    "url": "http://speedtest.kar.vodafoneidea.com:8080/speedtest/upload.php",
    "lat": "12.9833",
    "lon": "77.5833",
    "distance": 310,
    "name": "Bangalore",
    "country": "India",
    "cc": "IN",
    "sponsor": "Vi India",
    "id": "69597",
    "preferred": 0,
    "isp_id": "23698",
    "https_functional": 1,
    "host": "speedtest.kar.vodafoneidea.com:8080"
  },
  {
    "url": "http://speedtest.mum.vodafoneidea.com:8080/speedtest/upload.php",
    "lat": "18.9647",
    "lon": "72.8258",
    "distance": 386,
    "name": "Mumbai",
    "country": "India",
    "cc": "IN",
    "sponsor": "Vi India",
    "id": "69596",
    "preferred": 0,
    "isp_id": "23698",
    "https_functional": 1,
    "host": "speedtest.mum.vodafoneidea.com:8080"
  },
  {
    "url": "http://ooklatestjaipur.live.vodafone.in:8080/speedtest/upload.php",
    "lat": "26.9260",
    "lon": "75.8235",
    "distance": 681,
    "name": "Jaipur",
    "country": "India",
    "cc": "IN",
    "sponsor": "Vi India",
    "id": "22967",
    "preferred": 0,
    "isp_id": "23698",
    "https_functional": 1,
    "host": "ooklatestjaipur.live.vodafone.in:8080"
  },
  {
    "url": "http://speedtest.bih.vodafoneidea.com:8080/speedtest/upload.php",
    "lat": "25.5941",
    "lon": "85.1376",
    "distance": 712,
    "name": "Patna",
    "country": "India",
    "cc": "IN",
    "sponsor": "Vi India",
    "id": "69777",
    "preferred": 0,
    "isp_id": "23698",
    "https_functional": 1,
    "host": "speedtest.bih.vodafoneidea.com:8080"
  },
  {
    "url": "http://speedtest.del.vodafoneidea.com:8080/speedtest/upload.php",
    "lat": "28.4615",
    "lon": "77.0178",
    "distance": 772,
    "name": "Gurgaon",
    "country": "India",
    "cc": "IN",
    "sponsor": "Vi India",
    "id": "69558",
    "preferred": 0,
    "isp_id": "23698",
    "https_functional": 1,
    "host": "speedtest.del.vodafoneidea.com:8080"
  },
  {
    "url": "http://ooklatestbehrampur.live.vodafone.in:8080/speedtest/upload.php",
    "lat": "24.0983",
    "lon": "88.2684",
    "distance": 786,
    "name": "Behrampur",
    "country": "India",
    "cc": "IN",
    "sponsor": "Vi India",
    "id": "35038",
    "preferred": 0,
    "isp_id": "23698",
    "https_functional": 1,
    "host": "ooklatestbehrampur.live.vodafone.in:8080"
  }
]
